{
"type": "FeatureCollection",
"name": "facilities",
"crs": { "type": "name", "properties": { "name": "urn:ogc:def:crs:OGC:1.3:CRS84" } },
"features": [
{ "type": "Feature", "properties": { "OBJECTID": 1, "Fac_Name": "County Building", "Agency": "Multiple", "SubType": "Admin", "Addr": "118 N. Clark St.", "Muni": "Chicago", "Bldg": "Main", "BldgArea": 627715, "PrimUse": "Public", "PIN_1": "17094470040000" }, "geometry": { "type": "Point", "coordinates": [ -87.631209777251101, 41.88381908457081 ] } },
{ "type": "Feature", "properties": { "OBJECTID": 2, "Fac_Name": "George W. Dunne Administration Building- Main", "Agency": "Multiple", "SubType": "Admin", "Addr": "69 W. Washington St.", "Muni": "Chicago", "Bldg": "Main", "BldgArea": 770600, "PrimUse": "Admin", "PIN_1": "17094610158001" }, "geometry": { "type": "Point", "coordinates": [ -87.630105067786246, 41.882881212147716 ] } },
{ "type": "Feature", "properties": { "OBJECTID": 32, "Fac_Name": "Public Administrator Warehouse", "Agency": "Adminstrator", "SubType": "Admin", "Addr": "7232 N. Western", "Muni": "Chicago", "Bldg": "Main", "BldgArea": 7500, "PrimUse": "Storage\/Public Service", "PIN_1": "10254280110000" }, "geometry": { "type": "Point", "coordinates": [ -87.690789482923975, 42.013333997054573 ] } },
{ "type": "Feature", "properties": { "OBJECTID": 34, "Fac_Name": "Criminal Courts (26th\/California)", "Agency": "Circuit Court", "SubType": "Court", "Addr": "2650 S. California", "Muni": "Chicago", "Bldg": null, "BldgArea": 307567, "PrimUse": "Courts", "PIN_1": "16253060010000" }, "geometry": { "type": "Point", "coordinates": [ -87.696037126133476, 41.843894745051919 ] } },
{ "type": "Feature", "properties": { "OBJECTID": 55, "Fac_Name": "DOC Guard House B", "Agency": "Sheriff", "SubType": "PS", "Addr": "2602 S. California", "Muni": "Chicago", "Bldg": null, "BldgArea": 200, "PrimUse": null, "PIN_1": "16253060020000" }, "geometry": { "type": "Point", "coordinates": [ -87.696024382912384, 41.842467968265794 ] } },
{ "type": "Feature", "properties": { "OBJECTID": 60, "Fac_Name": "DOC Guard House G", "Agency": "Sheriff", "SubType": "PS", "Addr": "2828 W. 31st Street", "Muni": "Chicago", "Bldg": null, "BldgArea": 384, "PrimUse": null, "PIN_1": "1625313001powr" }, "geometry": { "type": "Point", "coordinates": [ -87.697219658319312, 41.837567408824988 ] } },
{ "type": "Feature", "properties": { "OBJECTID": 62, "Fac_Name": "DOC Guard House I", "Agency": "Sheriff", "SubType": "PS", "Addr": "2801 S. Sacramento Ave.", "Muni": "Chicago", "Bldg": null, "BldgArea": 160, "PrimUse": null, "PIN_1": "16253060020000" }, "geometry": { "type": "Point", "coordinates": [ -87.699709428289495, 41.840816300214996 ] } },
{ "type": "Feature", "properties": { "OBJECTID": 105, "Fac_Name": "DOC Parking Structure", "Agency": "Sheriff", "SubType": "PS", "Addr": "26th\/California", "Muni": "Chicago", "Bldg": null, "BldgArea": null, "PrimUse": "Parking", "PIN_1": "16254000120000" }, "geometry": { "type": "Point", "coordinates": [ -87.692988043464894, 41.844125000565157 ] } },
{ "type": "Feature", "properties": { "OBJECTID": 106, "Fac_Name": "Daley Center", "Agency": "Circuit Court", "SubType": "Court", "Addr": "50 W. Washington St.", "Muni": "Chicago", "Bldg": null, "BldgArea": 1133500, "PrimUse": "Courts", "PIN_1": "17094490200000" }, "geometry": { "type": "Point", "coordinates": [ -87.630190596066882, 41.88408939758353 ] } },
{ "type": "Feature", "properties": { "OBJECTID": 107, "Fac_Name": "Domestic Violence Courthouse", "Agency": "Circuit Court", "SubType": "Court", "Addr": "555 W. Harrison St.", "Muni": "Chicago", "Bldg": null, "BldgArea": 200334, "PrimUse": "Courts", "PIN_1": "17163040130000" }, "geometry": { "type": "Point", "coordinates": [ -87.641689396596561, 41.8739310072813 ] } },
{ "type": "Feature", "properties": { "OBJECTID": 108, "Fac_Name": "Juvenile West (Courthouse)", "Agency": "Circuit Court", "SubType": "Court", "Addr": "1100 S. Hamilton Ave.", "Muni": "Chicago", "Bldg": null, "BldgArea": 436815, "PrimUse": "Courts", "PIN_1": "17183360220000" }, "geometry": { "type": "Point", "coordinates": [ -87.682162623172871, 41.867128070800852 ] } },
{ "type": "Feature", "properties": { "OBJECTID": 109, "Fac_Name": "Markham Courthouse (6th District)", "Agency": "Circuit Court", "SubType": "Court", "Addr": "16501 S. Kedzie", "Muni": "Markham", "Bldg": null, "BldgArea": 323127, "PrimUse": "Courts", "PIN_1": "28243050430000" }, "geometry": { "type": "Point", "coordinates": [ -87.69309471917623, 41.590183822710181 ] } },
{ "type": "Feature", "properties": { "OBJECTID": 110, "Fac_Name": "Maywood Campus Site", "Agency": "Circuit Court", "SubType": "Court", "Addr": "1500 Maybrook Dr", "Muni": "Maywood", "Bldg": null, "BldgArea": null, "PrimUse": null, "PIN_1": "15142100210000" }, "geometry": { "type": "Point", "coordinates": [ -87.826304418822417, 41.8739167085334 ] } },
{ "type": "Feature", "properties": { "OBJECTID": 111, "Fac_Name": "Maywood Courthouse (4th District)", "Agency": "Circuit Court", "SubType": "Court", "Addr": "1500 Maybrook Dr.", "Muni": "Maywood", "Bldg": null, "BldgArea": 191704, "PrimUse": "Courts", "PIN_1": "15142100210000" }, "geometry": { "type": "Point", "coordinates": [ -87.826499320317012, 41.873025237280331 ] } },
{ "type": "Feature", "properties": { "OBJECTID": 113, "Fac_Name": "Rolling Meadows Courthouse (3rd District)", "Agency": "Circuit Court", "SubType": "Court", "Addr": "2121 Euclid Avenue", "Muni": "Rolling Meadows", "Bldg": null, "BldgArea": 341798, "PrimUse": "Courts", "PIN_1": "02254020050000" }, "geometry": { "type": "Point", "coordinates": [ -88.006656798106306, 42.08741658518381 ] } },
{ "type": "Feature", "properties": { "OBJECTID": 115, "Fac_Name": "Skokie Courthouse (2nd District)", "Agency": "Circuit Court", "SubType": "Court", "Addr": "5600 Old Orchard Rd.", "Muni": "Skokie", "Bldg": null, "BldgArea": 333245, "PrimUse": "Courts", "PIN_1": "10082020060000" }, "geometry": { "type": "Point", "coordinates": [ -87.766031749049958, 42.063200331115667 ] } },
{ "type": "Feature", "properties": { "OBJECTID": 117, "Fac_Name": "Circuit Court Branch 23\/50", "Agency": "Circuit Court", "SubType": "Court", "Addr": "5555 W. Grand", "Muni": "Chicago", "Bldg": null, "BldgArea": 50150, "PrimUse": "Courts", "PIN_1": "13331000100000" }, "geometry": { "type": "Point", "coordinates": [ -87.764870068151509, 41.9180161572408 ] } },
{ "type": "Feature", "properties": { "OBJECTID": 118, "Fac_Name": "Circuit Court Branch 34\/38", "Agency": "Circuit Court", "SubType": "Court", "Addr": "155 W. 51st St.", "Muni": "Chicago", "Bldg": null, "BldgArea": 32240, "PrimUse": "Courts", "PIN_1": "20094041180000" }, "geometry": { "type": "Point", "coordinates": [ -87.629995999698934, 41.801391404628127 ] } },
{ "type": "Feature", "properties": { "OBJECTID": 119, "Fac_Name": "Circuit Court Branch 43\/44", "Agency": "Circuit Court", "SubType": "Court", "Addr": "3150 W. Flournoy", "Muni": "Chicago", "Bldg": null, "BldgArea": 21400, "PrimUse": "Courts", "PIN_1": "16133000450000" }, "geometry": { "type": "Point", "coordinates": [ -87.705428216744892, 41.873534431248437 ] } },
{ "type": "Feature", "properties": { "OBJECTID": 120, "Fac_Name": "Bridgeview Courthouse (5th District)", "Agency": "Circuit Court", "SubType": "Court", "Addr": "10220 S. 76th Ave.", "Muni": "Bridgeview", "Bldg": null, "BldgArea": 342263, "PrimUse": "Courts", "PIN_1": "23124000180000" }, "geometry": { "type": "Point", "coordinates": [ -87.809535319488532, 41.705810820197001 ] } },
{ "type": "Feature", "properties": { "OBJECTID": 121, "Fac_Name": "Circuit Court Branch 35\/38", "Agency": "Circuit Court", "SubType": "Court", "Addr": "727 E. 111th St.", "Muni": "Chicago", "Bldg": null, "BldgArea": 85082, "PrimUse": "Courts", "PIN_1": "25231010140000" }, "geometry": { "type": "Point", "coordinates": [ -87.603989577733827, 41.692170381173668 ] } },
{ "type": "Feature", "properties": { "OBJECTID": 122, "Fac_Name": "Circuit Court Branch 29\/42", "Agency": "Circuit Court", "SubType": "Court", "Addr": "2452 W Belmont Ave", "Muni": "Chicago", "Bldg": null, "BldgArea": 9189, "PrimUse": "Courts", "PIN_1": "17343020140000" }, "geometry": { "type": "Point", "coordinates": [ -87.689475996955906, 41.939730216735299 ] } },
{ "type": "Feature", "properties": { "OBJECTID": 126, "Fac_Name": "Juvenile Temporary Detention Center", "Agency": "Circuit Court", "SubType": "Court", "Addr": "1100 S. Hamilton Ave.", "Muni": "Chicago", "Bldg": null, "BldgArea": 627147, "PrimUse": "Detention", "PIN_1": "17183300240000" }, "geometry": { "type": "Point", "coordinates": [ -87.680992938235761, 41.867623943095523 ] } },
{ "type": "Feature", "properties": { "OBJECTID": 127, "Fac_Name": "JTDC Parking Structure", "Agency": "Circuit Court", "SubType": "Court", "Addr": "10351 S. Woodlawn Ave.", "Muni": "Chicago", "Bldg": null, "BldgArea": 950233, "PrimUse": "Parking", "PIN_1": "25142000030000" }, "geometry": { "type": "Point", "coordinates": [ -87.593621145807447, 41.706580865224666 ] } },
{ "type": "Feature", "properties": { "OBJECTID": 130, "Fac_Name": "Whitcomb Building", "Agency": "Multiple", "SubType": "PS", "Addr": "1311 Maybrook Dr.", "Muni": "Maywood", "Bldg": null, "BldgArea": 45248, "PrimUse": "Admin", "PIN_1": "15142100220000" }, "geometry": { "type": "Point", "coordinates": [ -87.825800355657805, 41.874517162664652 ] } },
{ "type": "Feature", "properties": { "OBJECTID": 131, "Fac_Name": "Adult Probation Administration", "Agency": "Circuit Court", "SubType": "PS", "Addr": "1640 W. Walnut", "Muni": "Chicago", "Bldg": null, "BldgArea": 45248, "PrimUse": "Admin", "PIN_1": "17074110140000" }, "geometry": { "type": "Point", "coordinates": [ -87.668775415522433, 41.886352797979612 ] } },
{ "type": "Feature", "properties": { "OBJECTID": 132, "Fac_Name": "Child Support, State's Attorney", "Agency": "Circuit Court", "SubType": "PS", "Addr": "28 N. Clark, 3rd Flr", "Muni": "Chicago", "Bldg": null, "BldgArea": 37285, "PrimUse": "Public", "PIN_1": "17094600040000" }, "geometry": { "type": "Point", "coordinates": [ -87.631130735882266, 41.882471756330105 ] } },
{ "type": "Feature", "properties": { "OBJECTID": 140, "Fac_Name": "Oak Forest Health Center Site", "Agency": "CCHHS", "SubType": "Health", "Addr": "15900 S. Cicero Ave.", "Muni": "Bremen Twp", "Bldg": "Campus site", "BldgArea": null, "PrimUse": "Clinic", "PIN_1": "2822100001ofhs" }, "geometry": { "type": "Point", "coordinates": [ -87.732732511731797, 41.598297365584365 ] } },
{ "type": "Feature", "properties": { "OBJECTID": 141, "Fac_Name": "Oak Forest Specialty Health Center", "Agency": "CCHHS", "SubType": "Health", "Addr": "15900 S. Cicero Ave.", "Muni": "Bremen Twp", "Bldg": null, "BldgArea": null, "PrimUse": "Clinic", "PIN_1": "2822100001ofhs" }, "geometry": { "type": "Point", "coordinates": [ -87.732530665174679, 41.597319464292241 ] } },
{ "type": "Feature", "properties": { "OBJECTID": 203, "Fac_Name": "Stroger Campus site", "Agency": "CCHHS", "SubType": "Health", "Addr": "1901 W. Harrison St.", "Muni": "Chicago", "Bldg": null, "BldgArea": null, "PrimUse": null, "PIN_1": "15151240530000" }, "geometry": { "type": "Point", "coordinates": [ -87.674249471670706, 41.872891783493216 ] } },
{ "type": "Feature", "properties": { "OBJECTID": 204, "Fac_Name": "John H. Stroger Jr. Hospital", "Agency": "CCHHS", "SubType": "Health", "Addr": "1901 W. Harrison St.", "Muni": "Chicago", "Bldg": null, "BldgArea": 1188991, "PrimUse": "Hospital", "PIN_1": "17184020170000" }, "geometry": { "type": "Point", "coordinates": [ -87.674428432499781, 41.87254398682775 ] } },
{ "type": "Feature", "properties": { "OBJECTID": 207, "Fac_Name": "John H. Stroger Jr. Parking Structure", "Agency": "CCHHS", "SubType": "Health", "Addr": "1800 W. Polk", "Muni": "Chicago", "Bldg": null, "BldgArea": 423000, "PrimUse": "Parking", "PIN_1": "17184030030000" }, "geometry": { "type": "Point", "coordinates": [ -87.672247088508684, 41.871970207255814 ] } },
{ "type": "Feature", "properties": { "OBJECTID": 208, "Fac_Name": "Provident Hospital", "Agency": "CCHHS", "SubType": "Health", "Addr": "500 E. 51st St.", "Muni": "Chicago", "Bldg": null, "BldgArea": 339444, "PrimUse": "Hospital", "PIN_1": "20102290010000" }, "geometry": { "type": "Point", "coordinates": [ -87.613275373304006, 41.802589665627856 ] } },
{ "type": "Feature", "properties": { "OBJECTID": 209, "Fac_Name": "Provident Outpatient Pharmacy", "Agency": "CCHHS", "SubType": "Health", "Addr": "430 E. 50th Place", "Muni": "Chicago", "Bldg": null, "BldgArea": 6577, "PrimUse": "Pharmacy", "PIN_1": "20102220210000" }, "geometry": { "type": "Point", "coordinates": [ -87.61441811957863, 41.803357751036657 ] } },
{ "type": "Feature", "properties": { "OBJECTID": 211, "Fac_Name": "John Sengstacke Clinic (former)", "Agency": "CCHHS", "SubType": "Health", "Addr": "450 E. 51st St.", "Muni": "Chicago", "Bldg": null, "BldgArea": 10807, "PrimUse": "Vacant", "PIN_1": "20102280050000" }, "geometry": { "type": "Point", "coordinates": [ -87.614333495251614, 41.802714298739012 ] } },
{ "type": "Feature", "properties": { "OBJECTID": 212, "Fac_Name": "Provident Hospital Parking Structure", "Agency": "CCHHS", "SubType": "Health", "Addr": "5010 South Forrestville", "Muni": "Chicago", "Bldg": null, "BldgArea": 380000, "PrimUse": "Parking", "PIN_1": "20102230090000" }, "geometry": { "type": "Point", "coordinates": [ -87.612891661459443, 41.803524627659513 ] } },
{ "type": "Feature", "properties": { "OBJECTID": 213, "Fac_Name": "CCHHS Administration Building", "Agency": "CCHHS", "SubType": "Health", "Addr": "1900 W. Polk", "Muni": "Chicago", "Bldg": null, "BldgArea": 326181, "PrimUse": "Admin", "PIN_1": "17184020300000" }, "geometry": { "type": "Point", "coordinates": [ -87.674338424295485, 41.871869686468109 ] } },
{ "type": "Feature", "properties": { "OBJECTID": 215, "Fac_Name": "Hektoen Building", "Agency": "CCHHS", "SubType": "Health", "Addr": "13450 S. Kedzie Avenue", "Muni": "Chicago", "Bldg": null, "BldgArea": 146477, "PrimUse": "Admin\/Lab", "PIN_1": "1718404017hktn" }, "geometry": { "type": "Point", "coordinates": [ -87.671198112827909, 41.873420291504878 ] } },
{ "type": "Feature", "properties": { "OBJECTID": 216, "Fac_Name": "Rob't J. Stein Institute of Forensic Medicine", "Agency": "Bureau of Administration", "SubType": "Health", "Addr": "2020 West Harrison", "Muni": "Chicago", "Bldg": null, "BldgArea": 79368, "PrimUse": "Medical", "PIN_1": "17181360470000" }, "geometry": { "type": "Point", "coordinates": [ -87.68026306378718, 41.873595093974131 ] } },
{ "type": "Feature", "properties": { "OBJECTID": 218, "Fac_Name": "Ruth M. Rothstein Core Center", "Agency": "CCHHS", "SubType": "Health", "Addr": "2020 West Harrison", "Muni": "Chicago", "Bldg": null, "BldgArea": 31550, "PrimUse": "Clinic", "PIN_1": "17181360470000" }, "geometry": { "type": "Point", "coordinates": [ -87.677259286094809, 41.874713849436191 ] } },
{ "type": "Feature", "properties": { "OBJECTID": 220, "Fac_Name": "Cicero Health Center", "Agency": "ACHN", "SubType": "Health", "Addr": "5912 W. Cermak Road", "Muni": "Cicero", "Bldg": null, "BldgArea": 8125, "PrimUse": "Clinic", "PIN_1": "16204260250000" }, "geometry": { "type": "Point", "coordinates": [ -87.772060246251314, 41.851246043548954 ] } },
{ "type": "Feature", "properties": { "OBJECTID": 221, "Fac_Name": "Austin Health Center", "Agency": "ACHN", "SubType": "Health", "Addr": "4800 W. Chicago Ave.", "Muni": "Chicago", "Bldg": null, "BldgArea": 15249, "PrimUse": "Clinic", "PIN_1": "16044300310000" }, "geometry": { "type": "Point", "coordinates": [ -87.746203626075115, 41.895312803270819 ] } },
{ "type": "Feature", "properties": { "OBJECTID": 222, "Fac_Name": "Dr. Jorge Prieto Health Center", "Agency": "ACHN", "SubType": "Health", "Addr": "2424 S. Pulaski Road", "Muni": "Chicago", "Bldg": null, "BldgArea": 15714, "PrimUse": "Clinic", "PIN_1": "16272180220000" }, "geometry": { "type": "Point", "coordinates": [ -87.724979811645639, 41.847130551205929 ] } },
{ "type": "Feature", "properties": { "OBJECTID": 225, "Fac_Name": "Woodlawn Health Center", "Agency": "ACHN", "SubType": "Health", "Addr": "6337 S. Woodlawn", "Muni": "Chicago", "Bldg": null, "BldgArea": 11596, "PrimUse": "Clinic", "PIN_1": "20232000290000" }, "geometry": { "type": "Point", "coordinates": [ -87.595862418219767, 41.779539387103718 ] } },
{ "type": "Feature", "properties": { "OBJECTID": 227, "Fac_Name": "Cottage Grove Medical Center", "Agency": "CCHHS\/Public Health", "SubType": "Health", "Addr": "1645 Cottage Grove", "Muni": "Ford Heights", "Bldg": null, "BldgArea": 13370, "PrimUse": "Clinic", "PIN_1": "32233000240000" }, "geometry": { "type": "Point", "coordinates": [ -87.596489137143266, 41.504269068781184 ] } },
{ "type": "Feature", "properties": { "OBJECTID": 228, "Fac_Name": "Des Plaines TB Clinic", "Agency": "CCHHS", "SubType": "Health", "Addr": "9325 Church St.", "Muni": "Des Plaines", "Bldg": null, "BldgArea": 2489, "PrimUse": "Clinic", "PIN_1": "09153030160000" }, "geometry": { "type": "Point", "coordinates": [ -87.857966424860606, 42.046399362113512 ] } },
{ "type": "Feature", "properties": { "OBJECTID": 229, "Fac_Name": "Edward Piszczek TB Clinic", "Agency": "CCHHS\/Public Health", "SubType": "Health", "Addr": "7556 W. Jackson", "Muni": "Forest Park", "Bldg": null, "BldgArea": 19352, "PrimUse": "Clinic", "PIN_1": "15132160080000" }, "geometry": { "type": "Point", "coordinates": [ -87.814548672042406, 41.875574098107776 ] } },
{ "type": "Feature", "properties": { "OBJECTID": 231, "Fac_Name": "Englewood Health Center", "Agency": "CCHHS", "SubType": "Health", "Addr": "1135 W. 69th St.", "Muni": "Chicago", "Bldg": null, "BldgArea": 10770, "PrimUse": "Clinic", "PIN_1": "20204160180000" }, "geometry": { "type": "Point", "coordinates": [ -87.653366422670643, 41.768447783683676 ] } },
{ "type": "Feature", "properties": { "OBJECTID": 236, "Fac_Name": "Logan Square Health Center", "Agency": "Public Health", "SubType": "Health", "Addr": "2840 W. Fullerton Ave.", "Muni": "Chicago", "Bldg": null, "BldgArea": 8169, "PrimUse": "Clinic", "PIN_1": "13253230410000" }, "geometry": { "type": "Point", "coordinates": [ -87.699054939470884, 41.925089989030532 ] } },
{ "type": "Feature", "properties": { "OBJECTID": 238, "Fac_Name": "Suburban Tuberculosis Sanitorium", "Agency": "CCHHS\/Public", "SubType": "Health", "Addr": "5601 S. County Line Road", "Muni": "Hinsdale", "Bldg": null, "BldgArea": 143000, "PrimUse": null, "PIN_1": "18181000260000" }, "geometry": { "type": "Point", "coordinates": [ -87.915434486398922, 41.786139426616899 ] } },
{ "type": "Feature", "properties": { "OBJECTID": 239, "Fac_Name": "Children's Advocacy Center", "Agency": "ACHN", "SubType": "Health", "Addr": "1240 S Damen Ave", "Muni": "Chicago", "Bldg": null, "BldgArea": null, "PrimUse": "Public Service", "PIN_1": "17191070220000" }, "geometry": { "type": "Point", "coordinates": [ -87.676630521385576, 41.865411448206771 ] } },
{ "type": "Feature", "properties": { "OBJECTID": 242, "Fac_Name": "Green Lake Family Aquatic Center", "Agency": "FPDCC", "SubType": "FP", "Addr": "1224 159th St", "Muni": "Calumet City", "Bldg": null, "BldgArea": 5077, "PrimUse": "Aquatic Center", "PIN_1": "30183080050000" }, "geometry": { "type": "Point", "coordinates": [ -87.553433449721709, 41.60263769094658 ] } },
{ "type": "Feature", "properties": { "OBJECTID": 243, "Fac_Name": "Cermak Facility Aquatic Center", "Agency": "FPDCC", "SubType": "FP", "Addr": "7727 Ogden Ave", "Muni": "Lyons", "Bldg": "Main Building", "BldgArea": 8216, "PrimUse": "Aquatic Center", "PIN_1": "18011070020000" }, "geometry": { "type": "Point", "coordinates": [ -87.812059124766336, 41.818730485124071 ] } },
{ "type": "Feature", "properties": { "OBJECTID": 244, "Fac_Name": "Busse Lake Boating Center", "Agency": "FPDCC", "SubType": "FP", "Addr": "20009 Higgins Rd", "Muni": "Elk Grove Twp", "Bldg": null, "BldgArea": null, "PrimUse": "Boating Center", "PIN_1": "08203000010000" }, "geometry": { "type": "Point", "coordinates": [ -88.015151751158385, 42.024408380117656 ] } },
{ "type": "Feature", "properties": { "OBJECTID": 245, "Fac_Name": "Whealan Pool Aquatic Center- Concession", "Agency": "FPDCC", "SubType": "FP", "Addr": "6200 W Devon Ave", "Muni": "Chicago", "Bldg": "Concession", "BldgArea": 712, "PrimUse": "Aquatic Center", "PIN_1": "10323000030000" }, "geometry": { "type": "Point", "coordinates": [ -87.78329879910774, 41.998344056055672 ] } },
{ "type": "Feature", "properties": { "OBJECTID": 246, "Fac_Name": "Whealan Pool Aquatic Center- Bathhouse\/ Watchman Residence", "Agency": "FPDCC", "SubType": "FP", "Addr": "6200 W Devon Ave", "Muni": "Chicago", "Bldg": "Bathhouse\/ Watchman Residence", "BldgArea": 18018, "PrimUse": "Aquatic Center", "PIN_1": "10323000050000" }, "geometry": { "type": "Point", "coordinates": [ -87.782988169539479, 41.997988149560129 ] } },
{ "type": "Feature", "properties": { "OBJECTID": 247, "Fac_Name": "Caldwell Woods- Pavillion\/ Office", "Agency": "FPDCC", "SubType": "FP", "Addr": "6200 W Devon Ave", "Muni": "Chicago", "Bldg": "Pavillion\/ Office", "BldgArea": 4759, "PrimUse": "Pavillion", "PIN_1": "10323000070000" }, "geometry": { "type": "Point", "coordinates": [ -87.786405659941209, 41.997817692427624 ] } },
{ "type": "Feature", "properties": { "OBJECTID": 248, "Fac_Name": "Crabtree Nature Center", "Agency": "FPDCC", "SubType": "FP", "Addr": "3 Stover Rd", "Muni": "Barrington", "Bldg": null, "BldgArea": 6891, "PrimUse": "Nature Center", "PIN_1": "01154010010000" }, "geometry": { "type": "Point", "coordinates": [ -88.163579616069839, 42.115586876889445 ] } },
{ "type": "Feature", "properties": { "OBJECTID": 249, "Fac_Name": "Cummings Square", "Agency": "FPDCC", "SubType": "FP", "Addr": "536 N Harlem Ave", "Muni": "River Forest", "Bldg": "Facility", "BldgArea": 8324, "PrimUse": "General headquarters", "PIN_1": "15122180010000" }, "geometry": { "type": "Point", "coordinates": [ -87.805704186903114, 41.889795335562866 ] } },
{ "type": "Feature", "properties": { "OBJECTID": 250, "Fac_Name": "Dan Ryan Woods West- Pavillion", "Agency": "FPDCC", "SubType": "FP", "Addr": "2258 87th St", "Muni": "Chicago", "Bldg": null, "BldgArea": 3924, "PrimUse": "Pavillion\/ Comfort Station", "PIN_1": "20313170010000" }, "geometry": { "type": "Point", "coordinates": [ -87.679536595459368, 41.73714762655856 ] } },
{ "type": "Feature", "properties": { "OBJECTID": 251, "Fac_Name": "Mathew Bieszczat Volunteer Resource Center", "Agency": "FPDCC", "SubType": "FP", "Addr": "6100 N Central Ave", "Muni": "Chicago", "Bldg": null, "BldgArea": 7426, "PrimUse": "Volunteer Resource Center", "PIN_1": "13052110010000" }, "geometry": { "type": "Point", "coordinates": [ -87.768648062359503, 41.992029359253792 ] } },
{ "type": "Feature", "properties": { "OBJECTID": 252, "Fac_Name": "Hall Tyrrell Trailside Museum", "Agency": "FPDCC", "SubType": "FP", "Addr": "738 Thatcher Ave", "Muni": "River Forest", "Bldg": null, "BldgArea": 4641, "PrimUse": "Facility", "PIN_1": "15112000030000" }, "geometry": { "type": "Point", "coordinates": [ -87.826246514348853, 41.893237411825062 ] } },
{ "type": "Feature", "properties": { "OBJECTID": 253, "Fac_Name": "Little Red Schoolhouse Nature Center", "Agency": "FPDCC", "SubType": "FP", "Addr": "9750 Willow Springs Rd", "Muni": "Willow Springs", "Bldg": null, "BldgArea": 1250, "PrimUse": "Facility", "PIN_1": "23084010010000" }, "geometry": { "type": "Point", "coordinates": [ -87.876736753633409, 41.709042955078957 ] } },
{ "type": "Feature", "properties": { "OBJECTID": 254, "Fac_Name": "Maple Lake Boating Center- Concession", "Agency": "FPDCC", "SubType": "FP", "Addr": "Wolf Rd & 95th St", "Muni": "Willow Springs", "Bldg": null, "BldgArea": null, "PrimUse": "Boating Center", "PIN_1": "23081000010000" }, "geometry": { "type": "Point", "coordinates": [ -87.894269800703071, 41.712783587773714 ] } },
{ "type": "Feature", "properties": { "OBJECTID": 255, "Fac_Name": "Rivertrail Nature Center- Interpretive Center", "Agency": "FPDCC", "SubType": "FP", "Addr": "3120 Milwaukee Ave", "Muni": "Des Plaines", "Bldg": null, "BldgArea": 8173, "PrimUse": "Facility", "PIN_1": "04193000140000" }, "geometry": { "type": "Point", "coordinates": [ -87.884932957980936, 42.095019332827491 ] } },
{ "type": "Feature", "properties": { "OBJECTID": 256, "Fac_Name": "Sagawau Environmental Learning Center", "Agency": "FPDCC", "SubType": "FP", "Addr": "12545 W 111th St", "Muni": "Lemont", "Bldg": null, "BldgArea": 8104, "PrimUse": "Facility", "PIN_1": "22133040010000" }, "geometry": { "type": "Point", "coordinates": [ -87.925710316557684, 41.689228339842707 ] } },
{ "type": "Feature", "properties": { "OBJECTID": 257, "Fac_Name": "Sand Ridge Nature Center", "Agency": "FPDCC", "SubType": "FP", "Addr": "15895 Paxton Ave", "Muni": "South Holland", "Bldg": null, "BldgArea": 7417, "PrimUse": "Facility", "PIN_1": "29134000010000" }, "geometry": { "type": "Point", "coordinates": [ -87.565735400724733, 41.605897013836298 ] } },
{ "type": "Feature", "properties": { "OBJECTID": 258, "Fac_Name": "Tampier Lake Boating Center- Concession", "Agency": "FPDCC", "SubType": "FP", "Addr": "11601 131st St", "Muni": "Orland Park", "Bldg": null, "BldgArea": 1261, "PrimUse": "Boating Center", "PIN_1": "23314000030000" }, "geometry": { "type": "Point", "coordinates": [ -87.897747392606888, 41.650167599766952 ] } },
{ "type": "Feature", "properties": { "OBJECTID": 259, "Fac_Name": "Thatcher Woods- Pavillion", "Agency": "FPDCC", "SubType": "FP", "Addr": "8020 Chicago Ave", "Muni": "River Forest", "Bldg": null, "BldgArea": 5425, "PrimUse": "Pavillion", "PIN_1": "15024010010000" }, "geometry": { "type": "Point", "coordinates": [ -87.829570472906354, 41.897261960295694 ] } }
]
}
